{
"type": "FeatureCollection",
"name": "carte_arbres_geojson_3",
"crs": { "type": "name", "properties": { "name": "urn:ogc:def:crs:OGC:1.3:CRS84" } },
"features": [
{ "type": "Feature", "properties": { "Name": "Arbre à gomme", "description": "Id: 001p\nLabel: Arbre à gomme\nInterval: null\nprecisions: Eucommia ulmoides\nweight: 2\nlat: 48.85780390697412\nlon: 2.3957407859010877\n", "timestamp": null, "begin": null, "end": null, "altitudeMode": null, "tessellate": -1, "extrude": 0, "visibility": -1, "drawOrder": null, "icon": null }, "geometry": { "type": "Point", "coordinates": [ 2.395740785901088, 48.857803906974119 ] } },
{ "type": "Feature", "properties": { "Name": "Arbre aux pochettes d'argent", "description": "Id: 002p\nLabel: Arbre aux pochettes d'argent\nInterval: null\nprecisions: Davidia involucrata\nweight: 1\nlat: 48.87312252412982\nlon: 2.24876777630942\n", "timestamp": null, "begin": null, "end": null, "altitudeMode": null, "tessellate": -1, "extrude": 0, "visibility": -1, "drawOrder": null, "icon": null }, "geometry": { "type": "Point", "coordinates": [ 2.24876777630942, 48.873122524129819 ] } },
{ "type": "Feature", "properties": { "Name": "Arbre aux quarante écus", "description": "Id: 003p\nLabel: Arbre aux quarante écus\nInterval: null\nprecisions: Ginkgo biloba\nweight: 8\nlat: 48.82295102398932\nlon: 2.3374722492459696\n", "timestamp": null, "begin": null, "end": null, "altitudeMode": null, "tessellate": -1, "extrude": 0, "visibility": -1, "drawOrder": null, "icon": null }, "geometry": { "type": "Point", "coordinates": [ 2.33747224924597, 48.822951023989319 ] } },
{ "type": "Feature", "properties": { "Name": "Aulne à feuilles en cœur", "description": "Id: 004p\nLabel: Aulne à feuilles en cœur\nInterval: null\nprecisions: Alnus cordata\nweight: 1\nlat: 48.842820740868255\nlon: 2.297287282933029\n", "timestamp": null, "begin": null, "end": null, "altitudeMode": null, "tessellate": -1, "extrude": 0, "visibility": -1, "drawOrder": null, "icon": null }, "geometry": { "type": "Point", "coordinates": [ 2.297287282933029, 48.842820740868255 ] } },
{ "type": "Feature", "properties": { "Name": "Bouleau noir", "description": "Id: 005p\nLabel: Bouleau noir\nInterval: null\nprecisions: Betula nigra\nweight: 1\nlat: 48.84778224739848\nlon: 2.2537228817251775\n", "timestamp": null, "begin": null, "end": null, "altitudeMode": null, "tessellate": -1, "extrude": 0, "visibility": -1, "drawOrder": null, "icon": null }, "geometry": { "type": "Point", "coordinates": [ 2.253722881725178, 48.847782247398477 ] } },
{ "type": "Feature", "properties": { "Name": "Catalpa commun", "description": "Id: 006p\nLabel: Catalpa commun\nInterval: null\nprecisions: Catalpa bignonioides\nweight: 1\nlat: 48.87408216637905\nlon: 2.2591649767628947\n", "timestamp": null, "begin": null, "end": null, "altitudeMode": null, "tessellate": -1, "extrude": 0, "visibility": -1, "drawOrder": null, "icon": null }, "geometry": { "type": "Point", "coordinates": [ 2.259164976762895, 48.874082166379047 ] } },
{ "type": "Feature", "properties": { "Name": "Catalpa du Nord", "description": "Id: 007p\nLabel: Catalpa du Nord\nInterval: null\nprecisions: Catalpa speciosa 'Pulverulenta'\nweight: 1\nlat: 48.84758185001984\nlon: 2.2532779021891103\n", "timestamp": null, "begin": null, "end": null, "altitudeMode": null, "tessellate": -1, "extrude": 0, "visibility": -1, "drawOrder": null, "icon": null }, "geometry": { "type": "Point", "coordinates": [ 2.25327790218911, 48.847581850019843 ] } },
{ "type": "Feature", "properties": { "Name": "Cèdre à encens", "description": "Id: 008p\nLabel: Cèdre à encens\nInterval: null\nprecisions: Calocedrus decurrens\nweight: 2\nlat: 48.84087770055659\nlon: 2.3921128567976853\n", "timestamp": null, "begin": null, "end": null, "altitudeMode": null, "tessellate": -1, "extrude": 0, "visibility": -1, "drawOrder": null, "icon": null }, "geometry": { "type": "Point", "coordinates": [ 2.392112856797685, 48.84087770055659 ] } },
{ "type": "Feature", "properties": { "Name": "Cèdre bleu du Liban", "description": "Id: 009p\nLabel: Cèdre bleu du Liban\nInterval: null\nprecisions: Cedrus libani subsp. atlantica 'Glauca'\nweight: 2\nlat: 48.85437944639592\nlon: 2.2986297357649716\n", "timestamp": null, "begin": null, "end": null, "altitudeMode": null, "tessellate": -1, "extrude": 0, "visibility": -1, "drawOrder": null, "icon": null }, "geometry": { "type": "Point", "coordinates": [ 2.298629735764972, 48.854379446395917 ] } },
{ "type": "Feature", "properties": { "Name": "Cèdre du Liban", "description": "Id: 010p\nLabel: Cèdre du Liban\nInterval: null\nprecisions: Cedrus libani\nweight: 6\nlat: 48.863390731261134\nlon: 2.2404811309796577\n", "timestamp": null, "begin": null, "end": null, "altitudeMode": null, "tessellate": -1, "extrude": 0, "visibility": -1, "drawOrder": null, "icon": null }, "geometry": { "type": "Point", "coordinates": [ 2.240481130979658, 48.863390731261134 ] } },
{ "type": "Feature", "properties": { "Name": "Cédrèle de Chine", "description": "Id: 011p\nLabel: Cédrèle de Chine\nInterval: null\nprecisions: Toona sinensis\nweight: 1\nlat: 48.89335545445399\nlon: 2.3468204796812233\n", "timestamp": null, "begin": null, "end": null, "altitudeMode": null, "tessellate": -1, "extrude": 0, "visibility": -1, "drawOrder": null, "icon": null }, "geometry": { "type": "Point", "coordinates": [ 2.346820479681223, 48.893355454453989 ] } },
{ "type": "Feature", "properties": { "Name": "Chêne chevelu", "description": "Id: 012p\nLabel: Chêne chevelu\nInterval: null\nprecisions: Quercus cerris\nweight: 2\nlat: 48.83302104044913\nlon: 2.3499176091321226\n", "timestamp": null, "begin": null, "end": null, "altitudeMode": null, "tessellate": -1, "extrude": 0, "visibility": -1, "drawOrder": null, "icon": null }, "geometry": { "type": "Point", "coordinates": [ 2.349917609132123, 48.833021040449132 ] } },
{ "type": "Feature", "properties": { "Name": "Chêne de Hongrie", "description": "Id: 013p\nLabel: Chêne de Hongrie\nInterval: null\nprecisions: Quercus frainetto\nweight: 2\nlat: 48.83881631672055\nlon: 2.4065668582736595\n", "timestamp": null, "begin": null, "end": null, "altitudeMode": null, "tessellate": -1, "extrude": 0, "visibility": -1, "drawOrder": null, "icon": null }, "geometry": { "type": "Point", "coordinates": [ 2.406566858273659, 48.838816316720553 ] } },
{ "type": "Feature", "properties": { "Name": "Chêne liège", "description": "Id: 014p\nLabel: Chêne liège\nInterval: null\nprecisions: Quercus suber subsp. Occidentalis\nweight: 1\nlat: 48.84716612498836\nlon: 2.25292826534423\n", "timestamp": null, "begin": null, "end": null, "altitudeMode": null, "tessellate": -1, "extrude": 0, "visibility": -1, "drawOrder": null, "icon": null }, "geometry": { "type": "Point", "coordinates": [ 2.25292826534423, 48.847166124988362 ] } },
{ "type": "Feature", "properties": { "Name": "Chêne pédonculé", "description": "Id: 015p\nLabel: Chêne pédonculé\nInterval: null\nprecisions: Quercus robur\nweight: 2\nlat: 48.83417403143496\nlon: 2.461320616442216\n", "timestamp": null, "begin": null, "end": null, "altitudeMode": null, "tessellate": -1, "extrude": 0, "visibility": -1, "drawOrder": null, "icon": null }, "geometry": { "type": "Point", "coordinates": [ 2.461320616442216, 48.834174031434962 ] } },
{ "type": "Feature", "properties": { "Name": "Chêne vert", "description": "Id: 016p\nLabel: Chêne vert\nInterval: null\nprecisions: Quercus ilex\nweight: 4\nlat: 48.84656522855311\nlon: 2.2524200093560425\n", "timestamp": null, "begin": null, "end": null, "altitudeMode": null, "tessellate": -1, "extrude": 0, "visibility": -1, "drawOrder": null, "icon": null }, "geometry": { "type": "Point", "coordinates": [ 2.252420009356042, 48.846565228553111 ] } },
{ "type": "Feature", "properties": { "Name": "Chicot du Canada", "description": "Id: 017p\nLabel: Chicot du Canada\nInterval: null\nprecisions: Gymnocladus dioica 'Variegata'\nweight: 2\nlat: 48.8615163413308\nlon: 2.3990659845340123\n", "timestamp": null, "begin": null, "end": null, "altitudeMode": null, "tessellate": -1, "extrude": 0, "visibility": -1, "drawOrder": null, "icon": null }, "geometry": { "type": "Point", "coordinates": [ 2.399065984534012, 48.861516341330798 ] } },
{ "type": "Feature", "properties": { "Name": "Cryptomère du Japon", "description": "Id: 018p\nLabel: Cryptomère du Japon\nInterval: null\nprecisions: Cryptomeria japonica\nweight: 1\nlat: 48.831216574809346\nlon: 2.4116774009977107\n", "timestamp": null, "begin": null, "end": null, "altitudeMode": null, "tessellate": -1, "extrude": 0, "visibility": -1, "drawOrder": null, "icon": null }, "geometry": { "type": "Point", "coordinates": [ 2.411677400997711, 48.831216574809346 ] } },
{ "type": "Feature", "properties": { "Name": "Cyprès chauve", "description": "Id: 019p\nLabel: Cyprès chauve\nInterval: null\nprecisions: Taxodium distichum\nweight: 4\nlat: 48.86326316465342\nlon: 2.2407247706019686\n", "timestamp": null, "begin": null, "end": null, "altitudeMode": null, "tessellate": -1, "extrude": 0, "visibility": -1, "drawOrder": null, "icon": null }, "geometry": { "type": "Point", "coordinates": [ 2.240724770601969, 48.863263164653418 ] } },
{ "type": "Feature", "properties": { "Name": "Désespoir des singes", "description": "Id: 020p\nLabel: Désespoir des singes\nInterval: null\nprecisions: Araucaria araucana\nweight: 1\nlat: 48.871660039793895\nlon: 2.250432980599612\n", "timestamp": null, "begin": null, "end": null, "altitudeMode": null, "tessellate": -1, "extrude": 0, "visibility": -1, "drawOrder": null, "icon": null }, "geometry": { "type": "Point", "coordinates": [ 2.250432980599612, 48.871660039793895 ] } },
{ "type": "Feature", "properties": { "Name": "Érable à feuilles d'obier", "description": "Id: 021p\nLabel: Érable à feuilles d'obier\nInterval: null\nprecisions: Acer opalus\nweight: 1\nlat: 48.83037460319331\nlon: 2.413492823927373\n", "timestamp": null, "begin": null, "end": null, "altitudeMode": null, "tessellate": -1, "extrude": 0, "visibility": -1, "drawOrder": null, "icon": null }, "geometry": { "type": "Point", "coordinates": [ 2.413492823927373, 48.830374603193313 ] } },
{ "type": "Feature", "properties": { "Name": "Érable argenté", "description": "Id: 022p\nLabel: Érable argenté\nInterval: null\nprecisions: Acer saccharinum\nweight: 1\nlat: 48.84278366994572\nlon: 2.2968613367111588\n", "timestamp": null, "begin": null, "end": null, "altitudeMode": null, "tessellate": -1, "extrude": 0, "visibility": -1, "drawOrder": null, "icon": null }, "geometry": { "type": "Point", "coordinates": [ 2.296861336711159, 48.842783669945717 ] } },
{ "type": "Feature", "properties": { "Name": "Érable de Cappadoce", "description": "Id: 023p\nLabel: Érable de Cappadoce\nInterval: null\nprecisions: Acer cappadocicum\nweight: 1\nlat: 48.84094206801011\nlon: 2.4641321193579624\n", "timestamp": null, "begin": null, "end": null, "altitudeMode": null, "tessellate": -1, "extrude": 0, "visibility": -1, "drawOrder": null, "icon": null }, "geometry": { "type": "Point", "coordinates": [ 2.464132119357962, 48.840942068010108 ] } },
{ "type": "Feature", "properties": { "Name": "Erable de Montpellier", "description": "Id: 024p\nLabel: Erable de Montpellier\nInterval: null\nprecisions: Acer monspessulanum\nweight: 2\nlat: 48.8462426877782\nlon: 2.2513754114123214\n", "timestamp": null, "begin": null, "end": null, "altitudeMode": null, "tessellate": -1, "extrude": 0, "visibility": -1, "drawOrder": null, "icon": null }, "geometry": { "type": "Point", "coordinates": [ 2.251375411412321, 48.846242687778201 ] } },
{ "type": "Feature", "properties": { "Name": "Érable sycomore", "description": "Id: 025p\nLabel: Érable sycomore\nInterval: null\nprecisions: Acer pseudoplatanus\nweight: 1\nlat: 48.87870298813323\nlon: 2.306474175057195\n", "timestamp": null, "begin": null, "end": null, "altitudeMode": null, "tessellate": -1, "extrude": 0, "visibility": -1, "drawOrder": null, "icon": null }, "geometry": { "type": "Point", "coordinates": [ 2.306474175057195, 48.878702988133227 ] } },
{ "type": "Feature", "properties": { "Name": "Figuier", "description": "Id: 026p\nLabel: Figuier\nInterval: null\nprecisions: Ficus carica\nweight: 2\nlat: 48.858282014145885\nlon: 2.3626526679895483\n", "timestamp": null, "begin": null, "end": null, "altitudeMode": null, "tessellate": -1, "extrude": 0, "visibility": -1, "drawOrder": null, "icon": null }, "geometry": { "type": "Point", "coordinates": [ 2.362652667989548, 48.858282014145885 ] } },
{ "type": "Feature", "properties": { "Name": "Frêne commun", "description": "Id: 027p\nLabel: Frêne commun\nInterval: null\nprecisions: Fraxinus excelsior\nweight: 1\nlat: 48.88193644668083\nlon: 2.3982637667416813\n", "timestamp": null, "begin": null, "end": null, "altitudeMode": null, "tessellate": -1, "extrude": 0, "visibility": -1, "drawOrder": null, "icon": null }, "geometry": { "type": "Point", "coordinates": [ 2.398263766741681, 48.881936446680832 ] } },
{ "type": "Feature", "properties": { "Name": "Grenadier commun", "description": "Id: 028p\nLabel: Grenadier commun\nInterval: null\nprecisions: Punica granatum\nweight: 1\nlat: 48.8856415357491\nlon: 2.3438204500912323\n", "timestamp": null, "begin": null, "end": null, "altitudeMode": null, "tessellate": -1, "extrude": 0, "visibility": -1, "drawOrder": null, "icon": null }, "geometry": { "type": "Point", "coordinates": [ 2.343820450091232, 48.885641535749102 ] } },
{ "type": "Feature", "properties": { "Name": "Hêtre 'riversii'", "description": "Id: 029p\nLabel: Hêtre 'riversii'\nInterval: null\nprecisions: Fagus sylvatica 'Riversii'\nweight: 1\nlat: 48.822604059870535\nlon: 2.3367012201599313\n", "timestamp": null, "begin": null, "end": null, "altitudeMode": null, "tessellate": -1, "extrude": 0, "visibility": -1, "drawOrder": null, "icon": null }, "geometry": { "type": "Point", "coordinates": [ 2.336701220159931, 48.822604059870535 ] } },
{ "type": "Feature", "properties": { "Name": "Hêtre commun", "description": "Id: 030p\nLabel: Hêtre commun\nInterval: null\nprecisions: Fagus sylvatica\nweight: 2\nlat: 48.86420036288687\nlon: 2.267960367030491\n", "timestamp": null, "begin": null, "end": null, "altitudeMode": null, "tessellate": -1, "extrude": 0, "visibility": -1, "drawOrder": null, "icon": null }, "geometry": { "type": "Point", "coordinates": [ 2.267960367030491, 48.864200362886869 ] } },
{ "type": "Feature", "properties": { "Name": "Hêtre pleureur", "description": "Id: 031p\nLabel: Hêtre pleureur\nInterval: null\nprecisions: Fagus sylvatica 'Pendula'\nweight: 3\nlat: 48.87307572358429\nlon: 2.2485174288497247\n", "timestamp": null, "begin": null, "end": null, "altitudeMode": null, "tessellate": -1, "extrude": 0, "visibility": -1, "drawOrder": null, "icon": null }, "geometry": { "type": "Point", "coordinates": [ 2.248517428849725, 48.873075723584293 ] } },
{ "type": "Feature", "properties": { "Name": "Hêtre pourpre", "description": "Id: 032p\nLabel: Hêtre pourpre\nInterval: null\nprecisions: Fagus sylvatica 'Atropunicea'\nweight: 2\nlat: 48.8217706919343\nlon: 2.3229013014056803\n", "timestamp": null, "begin": null, "end": null, "altitudeMode": null, "tessellate": -1, "extrude": 0, "visibility": -1, "drawOrder": null, "icon": null }, "geometry": { "type": "Point", "coordinates": [ 2.32290130140568, 48.821770691934297 ] } },
{ "type": "Feature", "properties": { "Name": "Hêtre tortueux", "description": "Id: 033p\nLabel: Hêtre tortueux\nInterval: null\nprecisions: Fagus sylvatica 'Tortuosa'\nweight: 2\nlat: 48.823345239668\nlon: 2.339683429513845\n", "timestamp": null, "begin": null, "end": null, "altitudeMode": null, "tessellate": -1, "extrude": 0, "visibility": -1, "drawOrder": null, "icon": null }, "geometry": { "type": "Point", "coordinates": [ 2.339683429513845, 48.823345239668001 ] } },
{ "type": "Feature", "properties": { "Name": "If commun", "description": "Id: 034p\nLabel: If commun\nInterval: null\nprecisions: Taxus baccata\nweight: 4\nlat: 48.87093693583291\nlon: 2.2480344507355077\n", "timestamp": null, "begin": null, "end": null, "altitudeMode": null, "tessellate": -1, "extrude": 0, "visibility": -1, "drawOrder": null, "icon": null }, "geometry": { "type": "Point", "coordinates": [ 2.248034450735508, 48.870936935832908 ] } },
{ "type": "Feature", "properties": { "Name": "Magnolias à grandes fleurs", "description": "Id: 035p\nLabel: Magnolias à grandes fleurs\nInterval: null\nprecisions: Magnolia grandiflora\nweight: 6\nlat: 48.847281171674815\nlon: 2.2519271322165757\n", "timestamp": null, "begin": null, "end": null, "altitudeMode": null, "tessellate": -1, "extrude": 0, "visibility": -1, "drawOrder": null, "icon": null }, "geometry": { "type": "Point", "coordinates": [ 2.251927132216576, 48.847281171674815 ] } },
{ "type": "Feature", "properties": { "Name": "Margousier", "description": "Id: 036p\nLabel: Margousier\nInterval: null\nprecisions: Melia azedarach\nweight: 1\nlat: 48.85135747474973\nlon: 2.3251319038980833\n", "timestamp": null, "begin": null, "end": null, "altitudeMode": null, "tessellate": -1, "extrude": 0, "visibility": -1, "drawOrder": null, "icon": null }, "geometry": { "type": "Point", "coordinates": [ 2.325131903898083, 48.851357474749733 ] } },
{ "type": "Feature", "properties": { "Name": "Marronnier de Virginie", "description": "Id: 037p\nLabel: Marronnier de Virginie\nInterval: null\nprecisions: Aesculus pavia\nweight: 1\nlat: 48.89410543041636\nlon: 2.326277977159145\n", "timestamp": null, "begin": null, "end": null, "altitudeMode": null, "tessellate": -1, "extrude": 0, "visibility": -1, "drawOrder": null, "icon": null }, "geometry": { "type": "Point", "coordinates": [ 2.326277977159145, 48.89410543041636 ] } },
{ "type": "Feature", "properties": { "Name": "Marronniers d'Inde", "description": "Id: 038p\nLabel: Marronniers d'Inde\nInterval: null\nprecisions: Aesculus hippocastanum\nweight: 8\nlat: 48.88011122661839\nlon: 2.38566687472895\n", "timestamp": null, "begin": null, "end": null, "altitudeMode": null, "tessellate": -1, "extrude": 0, "visibility": -1, "drawOrder": null, "icon": null }, "geometry": { "type": "Point", "coordinates": [ 2.38566687472895, 48.880111226618389 ] } },
{ "type": "Feature", "properties": { "Name": "Métaséquoia", "description": "Id: 039p\nLabel: Métaséquoia\nInterval: null\nprecisions: Metasequoia glyptostroboides\nweight: 1\nlat: 48.89393780726534\nlon: 2.3244386625077906\n", "timestamp": null, "begin": null, "end": null, "altitudeMode": null, "tessellate": -1, "extrude": 0, "visibility": -1, "drawOrder": null, "icon": null }, "geometry": { "type": "Point", "coordinates": [ 2.324438662507791, 48.893937807265338 ] } },
{ "type": "Feature", "properties": { "Name": "Micocoulier de Corée", "description": "Id: 040p\nLabel: Micocoulier de Corée\nInterval: null\nprecisions: Celtis koraiensis\nweight: 1\nlat: 48.84603981120142\nlon: 2.2540662827092532\n", "timestamp": null, "begin": null, "end": null, "altitudeMode": null, "tessellate": -1, "extrude": 0, "visibility": -1, "drawOrder": null, "icon": null }, "geometry": { "type": "Point", "coordinates": [ 2.254066282709253, 48.846039811201422 ] } },
{ "type": "Feature", "properties": { "Name": "Micocoulier de Provence", "description": "Id: 041p\nLabel: Micocoulier de Provence\nInterval: null\nprecisions: Celtis australis\nweight: 1\nlat: 48.84264131753845\nlon: 2.296091104016332\n", "timestamp": null, "begin": null, "end": null, "altitudeMode": null, "tessellate": -1, "extrude": 0, "visibility": -1, "drawOrder": null, "icon": null }, "geometry": { "type": "Point", "coordinates": [ 2.296091104016332, 48.842641317538451 ] } },
{ "type": "Feature", "properties": { "Name": "Mûrier blanc", "description": "Id: 042p\nLabel: Mûrier blanc\nInterval: null\nprecisions: Morus alba\nweight: 1\nlat: 48.85786707488421\nlon: 2.3481193019963156\n", "timestamp": null, "begin": null, "end": null, "altitudeMode": null, "tessellate": -1, "extrude": 0, "visibility": -1, "drawOrder": null, "icon": null }, "geometry": { "type": "Point", "coordinates": [ 2.348119301996316, 48.857867074884211 ] } },
{ "type": "Feature", "properties": { "Name": "Mûrier commun", "description": "Id: 043p\nLabel: Mûrier commun\nInterval: null\nprecisions: Morus sp.\nweight: 1\nlat: 48.84128069137753\nlon: 2.344837586166943\n", "timestamp": null, "begin": null, "end": null, "altitudeMode": null, "tessellate": -1, "extrude": 0, "visibility": -1, "drawOrder": null, "icon": null }, "geometry": { "type": "Point", "coordinates": [ 2.344837586166943, 48.841280691377527 ] } },
{ "type": "Feature", "properties": { "Name": "Noisetier de Byzance", "description": "Id: 044p\nLabel: Noisetier de Byzance\nInterval: null\nprecisions: Corylus colurna\nweight: 6\nlat: 48.86159461179353\nlon: 2.291036270818486\n", "timestamp": null, "begin": null, "end": null, "altitudeMode": null, "tessellate": -1, "extrude": 0, "visibility": -1, "drawOrder": null, "icon": null }, "geometry": { "type": "Point", "coordinates": [ 2.291036270818486, 48.861594611793528 ] } },
{ "type": "Feature", "properties": { "Name": "Noyer de Chine", "description": "Id: 045p\nLabel: Noyer de Chine\nInterval: null\nprecisions: Pterocarya stenoptera\nweight: 1\nlat: 48.84714674672381\nlon: 2.2519835357695808\n", "timestamp": null, "begin": null, "end": null, "altitudeMode": null, "tessellate": -1, "extrude": 0, "visibility": -1, "drawOrder": null, "icon": null }, "geometry": { "type": "Point", "coordinates": [ 2.251983535769581, 48.847146746723809 ] } },
{ "type": "Feature", "properties": { "Name": "Noyer du Caucase", "description": "Id: 046p\nLabel: Noyer du Caucase\nInterval: null\nprecisions: Pterocarya fraxinifolia\nweight: 6\nlat: 48.863110850991035\nlon: 2.2618006494055565\n", "timestamp": null, "begin": null, "end": null, "altitudeMode": null, "tessellate": -1, "extrude": 0, "visibility": -1, "drawOrder": null, "icon": null }, "geometry": { "type": "Point", "coordinates": [ 2.261800649405556, 48.863110850991035 ] } },
{ "type": "Feature", "properties": { "Name": "Noyer noir", "description": "Id: 047p\nLabel: Noyer noir\nInterval: null\nprecisions: Juglans nigra\nweight: 1\nlat: 48.83343581082583\nlon: 2.4127979326349194\n", "timestamp": null, "begin": null, "end": null, "altitudeMode": null, "tessellate": -1, "extrude": 0, "visibility": -1, "drawOrder": null, "icon": null }, "geometry": { "type": "Point", "coordinates": [ 2.412797932634919, 48.833435810825833 ] } },
{ "type": "Feature", "properties": { "Name": "Oranger des Osages", "description": "Id: 048p\nLabel: Oranger des Osages\nInterval: null\nprecisions: Maclura pomifera\nweight: 1\nlat: 48.88566917919937\nlon: 2.3447140639945374\n", "timestamp": null, "begin": null, "end": null, "altitudeMode": null, "tessellate": -1, "extrude": 0, "visibility": -1, "drawOrder": null, "icon": null }, "geometry": { "type": "Point", "coordinates": [ 2.344714063994537, 48.885669179199368 ] } },
{ "type": "Feature", "properties": { "Name": "Orme champêtre", "description": "Id: 049p\nLabel: Orme champêtre\nInterval: null\nprecisions: Ulmus minor\nweight: 1\nlat: 48.855759637809996\nlon: 2.353991516603295\n", "timestamp": null, "begin": null, "end": null, "altitudeMode": null, "tessellate": -1, "extrude": 0, "visibility": -1, "drawOrder": null, "icon": null }, "geometry": { "type": "Point", "coordinates": [ 2.353991516603295, 48.855759637809996 ] } },
{ "type": "Feature", "properties": { "Name": "Orme du Caucase", "description": "Id: 050p\nLabel: Orme du Caucase\nInterval: null\nprecisions: Zelkova carpinifolia\nweight: 4\nlat: 48.872641757654996\nlon: 2.281364053188093\n", "timestamp": null, "begin": null, "end": null, "altitudeMode": null, "tessellate": -1, "extrude": 0, "visibility": -1, "drawOrder": null, "icon": null }, "geometry": { "type": "Point", "coordinates": [ 2.281364053188093, 48.872641757654996 ] } },
{ "type": "Feature", "properties": { "Name": "Orme pleureur", "description": "Id: 051p\nLabel: Orme pleureur\nInterval: null\nprecisions: Ulmus glabra ‘Pendula’\nweight: 1\nlat: 48.852102027274\nlon: 2.350803868692218\n", "timestamp": null, "begin": null, "end": null, "altitudeMode": null, "tessellate": -1, "extrude": 0, "visibility": -1, "drawOrder": null, "icon": null }, "geometry": { "type": "Point", "coordinates": [ 2.350803868692218, 48.852102027274 ] } },
{ "type": "Feature", "properties": { "Name": "Pin Napoléon", "description": "Id: 052p\nLabel: Pin Napoléon\nInterval: null\nprecisions: Pinus bungeana\nweight: 1\nlat: 48.82131243940147\nlon: 2.455898290583926\n", "timestamp": null, "begin": null, "end": null, "altitudeMode": null, "tessellate": -1, "extrude": 0, "visibility": -1, "drawOrder": null, "icon": null }, "geometry": { "type": "Point", "coordinates": [ 2.455898290583926, 48.821312439401467 ] } },
{ "type": "Feature", "properties": { "Name": "Pin noir", "description": "Id: 053p\nLabel: Pin noir\nInterval: null\nprecisions: Pinus nigra subsp. laricio\nweight: 2\nlat: 48.86300960058363\nlon: 2.241773747107387\n", "timestamp": null, "begin": null, "end": null, "altitudeMode": null, "tessellate": -1, "extrude": 0, "visibility": -1, "drawOrder": null, "icon": null }, "geometry": { "type": "Point", "coordinates": [ 2.241773747107387, 48.863009600583631 ] } },
{ "type": "Feature", "properties": { "Name": "Pistachier térébinthe", "description": "Id: 054p\nLabel: Pistachier térébinthe\nInterval: null\nprecisions: Pistacia terebinthus\nweight: 1\nlat: 48.84590426389465\nlon: 2.2530267667948825\n", "timestamp": null, "begin": null, "end": null, "altitudeMode": null, "tessellate": -1, "extrude": 0, "visibility": -1, "drawOrder": null, "icon": null }, "geometry": { "type": "Point", "coordinates": [ 2.253026766794882, 48.845904263894653 ] } },
{ "type": "Feature", "properties": { "Name": "Plaqueminier", "description": "Id: 055p\nLabel: Plaqueminier\nInterval: null\nprecisions: Diospyros kaki\nweight: 1\nlat: 48.85580495491174\nlon: 2.300302928952899\n", "timestamp": null, "begin": null, "end": null, "altitudeMode": null, "tessellate": -1, "extrude": 0, "visibility": -1, "drawOrder": null, "icon": null }, "geometry": { "type": "Point", "coordinates": [ 2.300302928952899, 48.85580495491174 ] } },
{ "type": "Feature", "properties": { "Name": "Plaqueminier de Virginie", "description": "Id: 056p\nLabel: Plaqueminier de Virginie\nInterval: null\nprecisions: Diospyros virginiana\nweight: 1\nlat: 48.83138289735175\nlon: 2.4114313653728985\n", "timestamp": null, "begin": null, "end": null, "altitudeMode": null, "tessellate": -1, "extrude": 0, "visibility": -1, "drawOrder": null, "icon": null }, "geometry": { "type": "Point", "coordinates": [ 2.411431365372898, 48.831382897351752 ] } },
{ "type": "Feature", "properties": { "Name": "Plaqueminier kaki", "description": "Id: 057p\nLabel: Plaqueminier kaki\nInterval: null\nprecisions: Diospyros kaki\nweight: 1\nlat: 48.86482426835401\nlon: 2.2521678603116206\n", "timestamp": null, "begin": null, "end": null, "altitudeMode": null, "tessellate": -1, "extrude": 0, "visibility": -1, "drawOrder": null, "icon": null }, "geometry": { "type": "Point", "coordinates": [ 2.252167860311621, 48.864824268354013 ] } },
{ "type": "Feature", "properties": { "Name": "Plaqueminier lotier", "description": "Id: 058p\nLabel: Plaqueminier lotier\nInterval: null\nprecisions: Diospyros lotus\nweight: 3\nlat: 48.85579301773249\nlon: 2.300264322422256\n", "timestamp": null, "begin": null, "end": null, "altitudeMode": null, "tessellate": -1, "extrude": 0, "visibility": -1, "drawOrder": null, "icon": null }, "geometry": { "type": "Point", "coordinates": [ 2.300264322422256, 48.855793017732488 ] } },
{ "type": "Feature", "properties": { "Name": "Platane commun", "description": "Id: 059p\nLabel: Platane commun\nInterval: null\nprecisions: Platanus x hispanica\nweight: 39\nlat: 48.832600635230804\nlon: 2.410534923538474\n", "timestamp": null, "begin": null, "end": null, "altitudeMode": null, "tessellate": -1, "extrude": 0, "visibility": -1, "drawOrder": null, "icon": null }, "geometry": { "type": "Point", "coordinates": [ 2.410534923538474, 48.832600635230804 ] } },
{ "type": "Feature", "properties": { "Name": "Platane d'Orient", "description": "Id: 060p\nLabel: Platane d'Orient\nInterval: null\nprecisions: Platanus orientalis\nweight: 6\nlat: 48.87858281831969\nlon: 2.307559794134397\n", "timestamp": null, "begin": null, "end": null, "altitudeMode": null, "tessellate": -1, "extrude": 0, "visibility": -1, "drawOrder": null, "icon": null }, "geometry": { "type": "Point", "coordinates": [ 2.307559794134397, 48.878582818319693 ] } },
{ "type": "Feature", "properties": { "Name": "Platane de Chypre", "description": "Id: 061p\nLabel: Platane de Chypre\nInterval: null\nprecisions: Platanus orientalis 'Digitata'\nweight: 1\nlat: 48.8702223204405\nlon: 2.248197423011967\n", "timestamp": null, "begin": null, "end": null, "altitudeMode": null, "tessellate": -1, "extrude": 0, "visibility": -1, "drawOrder": null, "icon": null }, "geometry": { "type": "Point", "coordinates": [ 2.248197423011967, 48.870222320440497 ] } },
{ "type": "Feature", "properties": { "Name": "Robinier faux-acacia", "description": "Id: 062p\nLabel: Robinier faux-acacia\nInterval: null\nprecisions: Robinia pseudoacacia\nweight: 1\nlat: 48.852191438077774\nlon: 2.3472861856377225\n", "timestamp": null, "begin": null, "end": null, "altitudeMode": null, "tessellate": -1, "extrude": 0, "visibility": -1, "drawOrder": null, "icon": null }, "geometry": { "type": "Point", "coordinates": [ 2.347286185637723, 48.852191438077774 ] } },
{ "type": "Feature", "properties": { "Name": "Saule pleureur", "description": "Id: 063p\nLabel: Saule pleureur\nInterval: null\nprecisions: Salix babylonica\nweight: 2\nlat: 48.85774901106895\nlon: 2.339403945743016\n", "timestamp": null, "begin": null, "end": null, "altitudeMode": null, "tessellate": -1, "extrude": 0, "visibility": -1, "drawOrder": null, "icon": null }, "geometry": { "type": "Point", "coordinates": [ 2.339403945743016, 48.857749011068947 ] } },
{ "type": "Feature", "properties": { "Name": "Savonnier", "description": "Id: 064p\nLabel: Savonnier\nInterval: null\nprecisions: Koelreuteria paniculata\nweight: 1\nlat: 48.87354080359454\nlon: 2.290450184951525\n", "timestamp": null, "begin": null, "end": null, "altitudeMode": null, "tessellate": -1, "extrude": 0, "visibility": -1, "drawOrder": null, "icon": null }, "geometry": { "type": "Point", "coordinates": [ 2.290450184951525, 48.873540803594537 ] } },
{ "type": "Feature", "properties": { "Name": "Séquoia géant", "description": "Id: 065p\nLabel: Séquoia géant\nInterval: null\nprecisions: Sequoiadendron giganteum\nweight: 5\nlat: 48.86697545705264\nlon: 2.319515215634701\n", "timestamp": null, "begin": null, "end": null, "altitudeMode": null, "tessellate": -1, "extrude": 0, "visibility": -1, "drawOrder": null, "icon": null }, "geometry": { "type": "Point", "coordinates": [ 2.319515215634701, 48.866975457052639 ] } },
{ "type": "Feature", "properties": { "Name": "Séquoia toujours vert", "description": "Id: 066p\nLabel: Séquoia toujours vert\nInterval: null\nprecisions: Sequoia sempervirens\nweight: 2\nlat: 48.82202510003852\nlon: 2.3362770386072533\n", "timestamp": null, "begin": null, "end": null, "altitudeMode": null, "tessellate": -1, "extrude": 0, "visibility": -1, "drawOrder": null, "icon": null }, "geometry": { "type": "Point", "coordinates": [ 2.336277038607253, 48.822025100038523 ] } },
{ "type": "Feature", "properties": { "Name": "Sophora du Japon", "description": "Id: 067p\nLabel: Sophora du Japon\nInterval: null\nprecisions: Sophora japonica\nweight: 2\nlat: 48.881465865661504\nlon: 2.3836769185762616\n", "timestamp": null, "begin": null, "end": null, "altitudeMode": null, "tessellate": -1, "extrude": 0, "visibility": -1, "drawOrder": null, "icon": null }, "geometry": { "type": "Point", "coordinates": [ 2.383676918576262, 48.881465865661504 ] } },
{ "type": "Feature", "properties": { "Name": "Tamaris de France", "description": "Id: 068p\nLabel: Tamaris de France\nInterval: null\nprecisions: Tamarix gallica\nweight: 1\nlat: 48.85235484734731\nlon: 2.3518099200412093\n", "timestamp": null, "begin": null, "end": null, "altitudeMode": null, "tessellate": -1, "extrude": 0, "visibility": -1, "drawOrder": null, "icon": null }, "geometry": { "type": "Point", "coordinates": [ 2.351809920041209, 48.852354847347307 ] } },
{ "type": "Feature", "properties": { "Name": "Tilleul argenté", "description": "Id: 069p\nLabel: Tilleul argenté\nInterval: null\nprecisions: Tilia tomentosa\nweight: 1\nlat: 48.88302932605956\nlon: 2.3700627971907866\n", "timestamp": null, "begin": null, "end": null, "altitudeMode": null, "tessellate": -1, "extrude": 0, "visibility": -1, "drawOrder": null, "icon": null }, "geometry": { "type": "Point", "coordinates": [ 2.370062797190787, 48.883029326059557 ] } },
{ "type": "Feature", "properties": { "Name": "Tulipier de Virginie", "description": "Id: 070p\nLabel: Tulipier de Virginie\nInterval: null\nprecisions: Liriodendron tulipifera\nweight: 4\nlat: 48.83198939877914\nlon: 2.4119924411807285\n", "timestamp": null, "begin": null, "end": null, "altitudeMode": null, "tessellate": -1, "extrude": 0, "visibility": -1, "drawOrder": null, "icon": null }, "geometry": { "type": "Point", "coordinates": [ 2.411992441180729, 48.831989398779143 ] } },
{ "type": "Feature", "properties": { "Name": "Chine", "description": "Id: 001c\nLabel: Chine\nInterval: null\nprecisions: Coordonnées de Pékin\nweight: 13\nlat: 39.9075\nlon: 116.39723\n", "timestamp": null, "begin": null, "end": null, "altitudeMode": null, "tessellate": -1, "extrude": 0, "visibility": -1, "drawOrder": null, "icon": null }, "geometry": { "type": "Point", "coordinates": [ 116.39723, 39.9075 ] } },
{ "type": "Feature", "properties": { "Name": "Corse", "description": "Id: 002c\nLabel: Corse\nInterval: null\nprecisions: Coordonnées d’Ajaccio\nweight: 1\nlat: 41.92723\nlon: 8.73462\n", "timestamp": null, "begin": null, "end": null, "altitudeMode": null, "tessellate": -1, "extrude": 0, "visibility": -1, "drawOrder": null, "icon": null }, "geometry": { "type": "Point", "coordinates": [ 8.73462, 41.92723 ] } },
{ "type": "Feature", "properties": { "Name": "USA", "description": "Id: 003c\nLabel: USA\nInterval: null\nprecisions: Coordonnées de New York\nweight: 13\nlat: 40.71427\nlon: -74.00597\n", "timestamp": null, "begin": null, "end": null, "altitudeMode": null, "tessellate": -1, "extrude": 0, "visibility": -1, "drawOrder": null, "icon": null }, "geometry": { "type": "Point", "coordinates": [ -74.00597, 40.71427 ] } },
{ "type": "Feature", "properties": { "Name": "Liban", "description": "Id: 004c\nLabel: Liban\nInterval: null\nprecisions: Coordonnées de Beyrouth\nweight: 2\nlat: 33.88894\nlon: 35.49442\n", "timestamp": null, "begin": null, "end": null, "altitudeMode": null, "tessellate": -1, "extrude": 0, "visibility": -1, "drawOrder": null, "icon": null }, "geometry": { "type": "Point", "coordinates": [ 35.49442, 33.88894 ] } },
{ "type": "Feature", "properties": { "Name": "Turquie", "description": "Id: 005c\nLabel: Turquie\nInterval: null\nprecisions: Coordonnées d’Ankara\nweight: 4\nlat: 39.91987\nlon: 32.85427\n", "timestamp": null, "begin": null, "end": null, "altitudeMode": null, "tessellate": -1, "extrude": 0, "visibility": -1, "drawOrder": null, "icon": null }, "geometry": { "type": "Point", "coordinates": [ 32.85427, 39.91987 ] } },
{ "type": "Feature", "properties": { "Name": "Hongrie", "description": "Id: 006c\nLabel: Hongrie\nInterval: null\nprecisions: Coordonnées de Budapest\nweight: 2\nlat: 47.49801\nlon: 19.03991\n", "timestamp": null, "begin": null, "end": null, "altitudeMode": null, "tessellate": -1, "extrude": 0, "visibility": -1, "drawOrder": null, "icon": null }, "geometry": { "type": "Point", "coordinates": [ 19.03991, 47.49801 ] } },
{ "type": "Feature", "properties": { "Name": "Portugal", "description": "Id: 007c\nLabel: Portugal\nInterval: null\nprecisions: Coordonnées de Lisbonne\nweight: 1\nlat: 38.71667\nlon: -9.13333\n", "timestamp": null, "begin": null, "end": null, "altitudeMode": null, "tessellate": -1, "extrude": 0, "visibility": -1, "drawOrder": null, "icon": null }, "geometry": { "type": "Point", "coordinates": [ -9.13333, 38.71667 ] } },
{ "type": "Feature", "properties": { "Name": "France", "description": "Id: 008c\nLabel: France\nInterval: null\nprecisions: Coordonnées de Lyon\nweight: 13\nlat: 45.74846\nlon: 4.84671\n", "timestamp": null, "begin": null, "end": null, "altitudeMode": null, "tessellate": -1, "extrude": 0, "visibility": -1, "drawOrder": null, "icon": null }, "geometry": { "type": "Point", "coordinates": [ 4.84671, 45.74846 ] } },
{ "type": "Feature", "properties": { "Name": "Canada", "description": "Id: 009c\nLabel: Canada\nInterval: null\nprecisions: Coordonnées d’Ottawa\nweight: 1\nlat: 45.41117\nlon: -75.69812\n", "timestamp": null, "begin": null, "end": null, "altitudeMode": null, "tessellate": -1, "extrude": 0, "visibility": -1, "drawOrder": null, "icon": null }, "geometry": { "type": "Point", "coordinates": [ -75.69812, 45.41117 ] } },
{ "type": "Feature", "properties": { "Name": "Japon", "description": "Id: 010c\nLabel: Japon\nInterval: null\nprecisions: Coordonnées de Tokyo\nweight: 2\nlat: 35.6895\nlon: 139.69171\n", "timestamp": null, "begin": null, "end": null, "altitudeMode": null, "tessellate": -1, "extrude": 0, "visibility": -1, "drawOrder": null, "icon": null }, "geometry": { "type": "Point", "coordinates": [ 139.69171, 35.6895 ] } },
{ "type": "Feature", "properties": { "Name": "Chili", "description": "Id: 011c\nLabel: Chili\nInterval: null\nprecisions: Coordonnées de Santiago du Chili\nweight: 1\nlat: -33.45694\nlon: -70.64827\n", "timestamp": null, "begin": null, "end": null, "altitudeMode": null, "tessellate": -1, "extrude": 0, "visibility": -1, "drawOrder": null, "icon": null }, "geometry": { "type": "Point", "coordinates": [ -70.64827, -33.45694 ] } },
{ "type": "Feature", "properties": { "Name": "Italie", "description": "Id: 012c\nLabel: Italie\nInterval: null\nprecisions: Coordonnées de Rome\nweight: 1\nlat: 41.89193\nlon: 12.51133\n", "timestamp": null, "begin": null, "end": null, "altitudeMode": null, "tessellate": -1, "extrude": 0, "visibility": -1, "drawOrder": null, "icon": null }, "geometry": { "type": "Point", "coordinates": [ 12.51133, 41.89193 ] } },
{ "type": "Feature", "properties": { "Name": "Géorgie", "description": "Id: 013c\nLabel: Géorgie\nInterval: null\nprecisions: Coordonnées de Tbilissi\nweight: 1\nlat: 41.69411\nlon: 44.83368\n", "timestamp": null, "begin": null, "end": null, "altitudeMode": null, "tessellate": -1, "extrude": 0, "visibility": -1, "drawOrder": null, "icon": null }, "geometry": { "type": "Point", "coordinates": [ 44.83368, 41.69411 ] } },
{ "type": "Feature", "properties": { "Name": "Azerbaïdjan", "description": "Id: 014c\nLabel: Azerbaïdjan\nInterval: null\nprecisions: Coordonnées de Bakou\nweight: 1\nlat: 40.37767\nlon: 49.89201\n", "timestamp": null, "begin": null, "end": null, "altitudeMode": null, "tessellate": -1, "extrude": 0, "visibility": -1, "drawOrder": null, "icon": null }, "geometry": { "type": "Point", "coordinates": [ 49.89201, 40.37767 ] } },
{ "type": "Feature", "properties": { "Name": "Allemagne", "description": "Id: 015c\nLabel: Allemagne\nInterval: null\nprecisions: Coordonnées de Berlin\nweight: 1\nlat: 52.52437\nlon: 13.41053\n", "timestamp": null, "begin": null, "end": null, "altitudeMode": null, "tessellate": -1, "extrude": 0, "visibility": -1, "drawOrder": null, "icon": null }, "geometry": { "type": "Point", "coordinates": [ 13.41053, 52.52437 ] } },
{ "type": "Feature", "properties": { "Name": "Iran", "description": "Id: 016c\nLabel: Iran\nInterval: null\nprecisions: Coordonnées de Téhéran\nweight: 3\nlat: 35.69439\nlon: 51.42151\n", "timestamp": null, "begin": null, "end": null, "altitudeMode": null, "tessellate": -1, "extrude": 0, "visibility": -1, "drawOrder": null, "icon": null }, "geometry": { "type": "Point", "coordinates": [ 51.42151, 35.69439 ] } },
{ "type": "Feature", "properties": { "Name": "Inde", "description": "Id: 017c\nLabel: Inde\nInterval: null\nprecisions: Coordonnées de New Delhi\nweight: 2\nlat: 28.63576\nlon: 77.22445\n", "timestamp": null, "begin": null, "end": null, "altitudeMode": null, "tessellate": -1, "extrude": 0, "visibility": -1, "drawOrder": null, "icon": null }, "geometry": { "type": "Point", "coordinates": [ 77.22445, 28.63576 ] } },
{ "type": "Feature", "properties": { "Name": "Corée du Sud", "description": "Id: 018c\nLabel: Corée du Sud\nInterval: null\nprecisions: Coordonnées de Séoul\nweight: 1\nlat: 37.566\nlon: 126.9784\n", "timestamp": null, "begin": null, "end": null, "altitudeMode": null, "tessellate": -1, "extrude": 0, "visibility": -1, "drawOrder": null, "icon": null }, "geometry": { "type": "Point", "coordinates": [ 126.9784, 37.566 ] } },
{ "type": "Feature", "properties": { "Name": "Espagne", "description": "Id: 019c\nLabel: Espagne\nInterval: null\nprecisions: Coordonnées de Madrid\nweight: 2\nlat: 40.4165\nlon: -3.70256\n", "timestamp": null, "begin": null, "end": null, "altitudeMode": null, "tessellate": -1, "extrude": 0, "visibility": -1, "drawOrder": null, "icon": null }, "geometry": { "type": "Point", "coordinates": [ -3.70256, 40.4165 ] } },
{ "type": "Feature", "properties": { "Name": "Pologne", "description": "Id: 020c\nLabel: Pologne\nInterval: null\nprecisions: Coordonnées de Varsovie\nweight: 1\nlat: 52.22977\nlon: 21.01178\n", "timestamp": null, "begin": null, "end": null, "altitudeMode": null, "tessellate": -1, "extrude": 0, "visibility": -1, "drawOrder": null, "icon": null }, "geometry": { "type": "Point", "coordinates": [ 21.01178, 52.22977 ] } },
{ "type": "Feature", "properties": { "Name": "Slovénie", "description": "Id: 021c\nLabel: Slovénie\nInterval: null\nprecisions: Coordonnées de Ljubljana\nweight: 1\nlat: 46.05108\nlon: 14.50513\n", "timestamp": null, "begin": null, "end": null, "altitudeMode": null, "tessellate": -1, "extrude": 0, "visibility": -1, "drawOrder": null, "icon": null }, "geometry": { "type": "Point", "coordinates": [ 14.50513, 46.05108 ] } },
{ "type": "Feature", "properties": { "Name": "Maroc", "description": "Id: 022c\nLabel: Maroc\nInterval: null\nprecisions: Coordonnées de Rabat\nweight: 1\nlat: 34.01325\nlon: -6.83255\n", "timestamp": null, "begin": null, "end": null, "altitudeMode": null, "tessellate": -1, "extrude": 0, "visibility": -1, "drawOrder": null, "icon": null }, "geometry": { "type": "Point", "coordinates": [ -6.83255, 34.01325 ] } },
{ "type": "Feature", "properties": { "Name": "Chypre", "description": "Id: 023c\nLabel: Chypre\nInterval: null\nprecisions: Coordonnées de Nicosie\nweight: 1\nlat: 35.17531\nlon: 33.3642\n", "timestamp": null, "begin": null, "end": null, "altitudeMode": null, "tessellate": -1, "extrude": 0, "visibility": -1, "drawOrder": null, "icon": null }, "geometry": { "type": "Point", "coordinates": [ 33.3642, 35.17531 ] } }
]
}
